{
"type": "FeatureCollection",
"name": "Bus_Terminals_of_NJ_Transit",
"crs": { "type": "name", "properties": { "name": "urn:ogc:def:crs:OGC:1.3:CRS84" } },
"features": [
{ "type": "Feature", "properties": { "OBJECTID": 1, "COUNTY": "Middlesex", "LATITUDE": 40.4459, "LONGITUDE": -74.2995, "TYPE": "Park/Ride", "OWNER": "NJ Transit", "OPERATOR": "NJ Transit", "PARKING": "Y", "NAME": "Old Bridge Park/Ride", "MUNICIPALITY": "Old Bridge Twp", "TICKET_SELLER": "NJ Transit", "ORIG_FID": 26, "SE_ANNO_CAD_DATA": "" }, "geometry": { "type": "Point", "coordinates": [ -74.299502484584707, 40.445909115928501 ] } },
{ "type": "Feature", "properties": { "OBJECTID": 2, "COUNTY": "New York", "LATITUDE": 40.7572, "LONGITUDE": -73.99317, "TYPE": "Terminal", "OWNER": "Port Authority of NY & NJ", "OPERATOR": "Port Authority of NY & NJ", "PARKING": "N", "NAME": "Port Authority Bus Terminal", "MUNICIPALITY": "New York", "TICKET_SELLER": "NJ Transit", "ORIG_FID": 3, "SE_ANNO_CAD_DATA": "" }, "geometry": { "type": "Point", "coordinates": [ -73.993172459076803, 40.757208056519502 ] } },
{ "type": "Feature", "properties": { "OBJECTID": 3, "COUNTY": "Passaic", "LATITUDE": 40.92228, "LONGITUDE": -74.26721, "TYPE": "Park/Ride", "OWNER": "NJ DOT", "OPERATOR": "NJ Transit", "PARKING": "Y", "NAME": "Mothers Park/Ride", "MUNICIPALITY": "Wayne Twp", "TICKET_SELLER": "None", "ORIG_FID": 15, "SE_ANNO_CAD_DATA": "" }, "geometry": { "type": "Point", "coordinates": [ -74.267211549937599, 40.922289098868497 ] } },
{ "type": "Feature", "properties": { "OBJECTID": 4, "COUNTY": "Hudson", "LATITUDE": 40.73559, "LONGITUDE": -74.02901, "TYPE": "Terminal", "OWNER": "NJ Transit", "OPERATOR": "NJ Transit", "PARKING": "N", "NAME": "Hoboken Bus Terminal", "MUNICIPALITY": "Hoboken", "TICKET_SELLER": "NJ Transit", "ORIG_FID": 21, "SE_ANNO_CAD_DATA": "" }, "geometry": { "type": "Point", "coordinates": [ -74.029008343623303, 40.735600593553897 ] } },
{ "type": "Feature", "properties": { "OBJECTID": 5, "COUNTY": "Passaic", "LATITUDE": 40.90087, "LONGITUDE": -74.2562, "TYPE": "Park/Ride", "OWNER": "NJ Transit", "OPERATOR": "NJ Transit", "PARKING": "Y", "NAME": "Wayne Transportation Center", "MUNICIPALITY": "Wayne Twp", "TICKET_SELLER": "None", "ORIG_FID": 10, "SE_ANNO_CAD_DATA": "" }, "geometry": { "type": "Point", "coordinates": [ -74.256202507582003, 40.900878922367497 ] } },
{ "type": "Feature", "properties": { "OBJECTID": 6, "COUNTY": "Cape May", "LATITUDE": 38.9869, "LONGITUDE": -74.82262, "TYPE": "Terminal", "OWNER": "NJ Transit", "OPERATOR": "NJ Transit", "PARKING": "N", "NAME": "Wildwood Bus Terminal", "MUNICIPALITY": "Wildwood", "TICKET_SELLER": "NJ Transit", "ORIG_FID": 18, "SE_ANNO_CAD_DATA": "" }, "geometry": { "type": "Point", "coordinates": [ -74.822622577684299, 38.986907699505601 ] } },
{ "type": "Feature", "properties": { "OBJECTID": 7, "COUNTY": "Bergen", "LATITUDE": 40.88226, "LONGITUDE": -74.04218, "TYPE": "Terminal", "OWNER": "NJ Transit", "OPERATOR": "NJ Transit", "PARKING": "N", "NAME": "Hackensack Bus Terminal", "MUNICIPALITY": "Hackensack", "TICKET_SELLER": "Contracted Ticket Agent", "ORIG_FID": 4, "SE_ANNO_CAD_DATA": "" }, "geometry": { "type": "Point", "coordinates": [ -74.042181648128803, 40.882263369518498 ] } },
{ "type": "Feature", "properties": { "OBJECTID": 8, "COUNTY": "Camden", "LATITUDE": 39.94353, "LONGITUDE": -75.11822, "TYPE": "Terminal", "OWNER": "NJ Transit", "OPERATOR": "NJ Transit", "PARKING": "Y", "NAME": "Walter Rand Transportation Center", "MUNICIPALITY": "Camden", "TICKET_SELLER": "NJ Transit & Greyhound", "ORIG_FID": 28, "SE_ANNO_CAD_DATA": "" }, "geometry": { "type": "Point", "coordinates": [ -75.118220267614504, 39.943537509598002 ] } },
{ "type": "Feature", "properties": { "OBJECTID": 9, "COUNTY": "Cape May", "LATITUDE": 39.2791, "LONGITUDE": -74.5781, "TYPE": "Terminal", "OWNER": "NJ Transit", "OPERATOR": "City of Ocean City", "PARKING": "Y", "NAME": "Ocean City Bus Terminal", "MUNICIPALITY": "Ocean City", "TICKET_SELLER": "Contracted Ticket Agent", "ORIG_FID": 23, "SE_ANNO_CAD_DATA": "" }, "geometry": { "type": "Point", "coordinates": [ -74.578100810413204, 39.279107214645201 ] } },
{ "type": "Feature", "properties": { "OBJECTID": 10, "COUNTY": "Essex", "LATITUDE": 40.72655, "LONGITUDE": -74.22735, "TYPE": "Terminal", "OWNER": "NJ Transit", "OPERATOR": "NJ Transit", "PARKING": "Y", "NAME": "Irvington Bus Terminal", "MUNICIPALITY": "Irvington Twp", "TICKET_SELLER": "Contracted Ticket Agent", "ORIG_FID": 1, "SE_ANNO_CAD_DATA": "" }, "geometry": { "type": "Point", "coordinates": [ -74.227349611907002, 40.726556944379901 ] } },
{ "type": "Feature", "properties": { "OBJECTID": 11, "COUNTY": "Ocean", "LATITUDE": 40.0908, "LONGITUDE": -74.2126, "TYPE": "Terminal", "OWNER": "NJ Transit", "OPERATOR": "NJ Transit", "PARKING": "Y", "NAME": "Lakewood Bus Terminal", "MUNICIPALITY": "Lakewood", "TICKET_SELLER": "NJ Transit", "ORIG_FID": 25, "SE_ANNO_CAD_DATA": "" }, "geometry": { "type": "Point", "coordinates": [ -74.212602493971005, 40.090808467823798 ] } },
{ "type": "Feature", "properties": { "OBJECTID": 12, "COUNTY": "Camden", "LATITUDE": 39.71173, "LONGITUDE": -74.97553, "TYPE": "Park/Ride", "OWNER": "NJ Transit", "OPERATOR": "NJ Transit", "PARKING": "Y", "NAME": "Avandale Park/Ride", "MUNICIPALITY": "Winslow Twp", "TICKET_SELLER": "Contracted Ticket Agent", "ORIG_FID": 2, "SE_ANNO_CAD_DATA": "" }, "geometry": { "type": "Point", "coordinates": [ -74.975535882991807, 39.711734713399501 ] } },
{ "type": "Feature", "properties": { "OBJECTID": 13, "COUNTY": "Cumberland", "LATITUDE": 39.4872, "LONGITUDE": -75.0342, "TYPE": "Terminal", "OWNER": "Frank Guaracini Jr. Transportation Co.", "OPERATOR": "Marlon Martinez", "PARKING": "Y", "NAME": "Vineland Bus Terminal", "MUNICIPALITY": "Vineland", "TICKET_SELLER": "Contracted Ticket Agent", "ORIG_FID": 24, "SE_ANNO_CAD_DATA": "" }, "geometry": { "type": "Point", "coordinates": [ -75.034200723332006, 39.487208122752399 ] } },
{ "type": "Feature", "properties": { "OBJECTID": 14, "COUNTY": "Monmouth", "LATITUDE": 40.19671, "LONGITUDE": -74.2534, "TYPE": "Park/Ride", "OWNER": "NJ Transit", "OPERATOR": "NJ Transit", "PARKING": "Y", "NAME": "Howell Park/Ride", "MUNICIPALITY": "Howell Twp", "TICKET_SELLER": "None", "ORIG_FID": 5, "SE_ANNO_CAD_DATA": "" }, "geometry": { "type": "Point", "coordinates": [ -74.253397370088905, 40.196715453536598 ] } },
{ "type": "Feature", "properties": { "OBJECTID": 15, "COUNTY": "Hudson", "LATITUDE": 40.73113, "LONGITUDE": -74.06283, "TYPE": "Terminal", "OWNER": "Port Authority of NY & NJ", "OPERATOR": "Port Authority of NY & NJ", "PARKING": "N", "NAME": "Journal Square", "MUNICIPALITY": "Jersey City", "TICKET_SELLER": "None", "ORIG_FID": 8, "SE_ANNO_CAD_DATA": "" }, "geometry": { "type": "Point", "coordinates": [ -74.062834202864494, 40.731141965287101 ] } },
{ "type": "Feature", "properties": { "OBJECTID": 16, "COUNTY": "Passaic", "LATITUDE": 40.8855, "LONGITUDE": -74.2586, "TYPE": "Park/Ride", "OWNER": "Willowbrook Mall", "OPERATOR": "NJ Transit", "PARKING": "Y", "NAME": "Willowbrook Mall", "MUNICIPALITY": "Wayne Twp", "TICKET_SELLER": "None", "ORIG_FID": 12, "SE_ANNO_CAD_DATA": "" }, "geometry": { "type": "Point", "coordinates": [ -74.258600888556003, 40.885508344351699 ] } },
{ "type": "Feature", "properties": { "OBJECTID": 17, "COUNTY": "Passaic", "LATITUDE": 41.1502, "LONGITUDE": -74.3471, "TYPE": "Park/Ride", "OWNER": "West Milford", "OPERATOR": "NJ Transit", "PARKING": "Y", "NAME": "West Millford Park/Ride", "MUNICIPALITY": "West Milford Twp", "TICKET_SELLER": "None", "ORIG_FID": 19, "SE_ANNO_CAD_DATA": "" }, "geometry": { "type": "Point", "coordinates": [ -74.347102373521295, 41.150208947190599 ] } },
{ "type": "Feature", "properties": { "OBJECTID": 18, "COUNTY": "Passaic", "LATITUDE": 40.9186, "LONGITUDE": -74.1745, "TYPE": "Terminal", "OWNER": "NJ Transit", "OPERATOR": "NJ Transit", "PARKING": "N", "NAME": "Broadway Bus Terminal", "MUNICIPALITY": "Paterson", "TICKET_SELLER": "Contracted Ticket Agent", "ORIG_FID": 17, "SE_ANNO_CAD_DATA": "" }, "geometry": { "type": "Point", "coordinates": [ -74.174502255690797, 40.918607319675097 ] } },
{ "type": "Feature", "properties": { "OBJECTID": 19, "COUNTY": "Burlington", "LATITUDE": 40.09996, "LONGITUDE": -74.80484, "TYPE": "Park/Ride", "OWNER": "NJ Transit", "OPERATOR": "NJ Transit", "PARKING": "Y", "NAME": "Florence Park/Ride", "MUNICIPALITY": "Florence Twp", "TICKET_SELLER": "NJ Transit", "ORIG_FID": 7, "SE_ANNO_CAD_DATA": "" }, "geometry": { "type": "Point", "coordinates": [ -74.804839199339796, 40.099972652395799 ] } },
{ "type": "Feature", "properties": { "OBJECTID": 20, "COUNTY": "Bergen", "LATITUDE": 40.82679, "LONGITUDE": -74.02852, "TYPE": "Park/Ride", "OWNER": "NJ Turnpike", "OPERATOR": "NJ Transit", "PARKING": "Y", "NAME": "Vince Lombardi Park/Ride", "MUNICIPALITY": "Ridgefield", "TICKET_SELLER": "NJ Transit", "ORIG_FID": 14, "SE_ANNO_CAD_DATA": "" }, "geometry": { "type": "Point", "coordinates": [ -74.028521298293299, 40.826798707707702 ] } },
{ "type": "Feature", "properties": { "OBJECTID": 21, "COUNTY": "Essex", "LATITUDE": 40.7347, "LONGITUDE": -74.1628, "TYPE": "Terminal", "OWNER": "NJ Transit", "OPERATOR": "NJ Transit", "PARKING": "N", "NAME": "Newark Penn Station", "MUNICIPALITY": "Newark", "TICKET_SELLER": "NJ Transit & Greyhound", "ORIG_FID": 16, "SE_ANNO_CAD_DATA": "" }, "geometry": { "type": "Point", "coordinates": [ -74.162801932497004, 40.734707513633801 ] } },
{ "type": "Feature", "properties": { "OBJECTID": 22, "COUNTY": "Atlantic", "LATITUDE": 39.3604, "LONGITUDE": -74.43705, "TYPE": "Terminal", "OWNER": "NJ Transit", "OPERATOR": "NJ Transit", "PARKING": "N", "NAME": "Atlantic City Bus Terminal", "MUNICIPALITY": "Atlantic City", "TICKET_SELLER": "NJ Transit & Greyhound", "ORIG_FID": 9, "SE_ANNO_CAD_DATA": "" }, "geometry": { "type": "Point", "coordinates": [ -74.4370503971397, 39.360407468558897 ] } },
{ "type": "Feature", "properties": { "OBJECTID": 23, "COUNTY": "Philadelphia", "LATITUDE": 39.95313, "LONGITUDE": -75.15733, "TYPE": "Terminal", "OWNER": "Greyhound", "OPERATOR": "Greyhound", "PARKING": "N", "NAME": "Greyhound Bus Terminal", "MUNICIPALITY": "Philadelphia", "TICKET_SELLER": "NJ Transit & Greyhound", "ORIG_FID": 13, "SE_ANNO_CAD_DATA": "" }, "geometry": { "type": "Point", "coordinates": [ -75.157331768765204, 39.953138066526797 ] } },
{ "type": "Feature", "properties": { "OBJECTID": 24, "COUNTY": "Passaic", "LATITUDE": 40.85407, "LONGITUDE": -74.1753, "TYPE": "Park/Ride", "OWNER": "NJ Highway Authority", "OPERATOR": "NJ Transit", "PARKING": "Y", "NAME": "Allwood Road Park/Ride", "MUNICIPALITY": "Clifton", "TICKET_SELLER": "None", "ORIG_FID": 22, "SE_ANNO_CAD_DATA": "" }, "geometry": { "type": "Point", "coordinates": [ -74.175301954902096, 40.8540778012975 ] } },
{ "type": "Feature", "properties": { "OBJECTID": 25, "COUNTY": "Passaic", "LATITUDE": 41.04615, "LONGITUDE": -74.4361, "TYPE": "Park/Ride", "OWNER": "Town of West Milford", "OPERATOR": "Town of West Milford", "PARKING": "Y", "NAME": "New Foundland Park/Ride", "MUNICIPALITY": "West Milford Twp", "TICKET_SELLER": "None", "ORIG_FID": 20, "SE_ANNO_CAD_DATA": "" }, "geometry": { "type": "Point", "coordinates": [ -74.436096029782902, 41.046156768076003 ] } },
{ "type": "Feature", "properties": { "OBJECTID": 26, "COUNTY": "New York", "LATITUDE": 40.849, "LONGITUDE": -73.9391, "TYPE": "Terminal", "OWNER": "Port Authority of NY & NJ", "OPERATOR": "Port Authority of NY & NJ", "PARKING": "N", "NAME": "George Washington Bridge", "MUNICIPALITY": "New York", "TICKET_SELLER": "NJ Transit", "ORIG_FID": 11, "SE_ANNO_CAD_DATA": "" }, "geometry": { "type": "Point", "coordinates": [ -73.939100554420094, 40.849007654305602 ] } },
{ "type": "Feature", "properties": { "OBJECTID": 27, "COUNTY": "Cape May", "LATITUDE": 38.9351, "LONGITUDE": -74.9227, "TYPE": "Terminal", "OWNER": "City of Cape May", "OPERATOR": "City of Cape May", "PARKING": "N", "NAME": "Cape May Bus Terminal", "MUNICIPALITY": "Cape May", "TICKET_SELLER": "None", "ORIG_FID": 6, "SE_ANNO_CAD_DATA": "" }, "geometry": { "type": "Point", "coordinates": [ -74.922702730329405, 38.935108004903299 ] } },
{ "type": "Feature", "properties": { "OBJECTID": 28, "COUNTY": "Hudson", "LATITUDE": 40.77635, "LONGITUDE": -74.04289, "TYPE": "Park/Ride", "OWNER": "Port Authority of NY & NJ", "OPERATOR": "NJ Transit", "PARKING": "Y", "NAME": "North Bergen Park/Ride", "MUNICIPALITY": "North Bergen Twp", "TICKET_SELLER": "NJ Transit", "ORIG_FID": 27, "SE_ANNO_CAD_DATA": "" }, "geometry": { "type": "Point", "coordinates": [ -74.042890784451501, 40.776358608142502 ] } }
]
}
