{
"type": "FeatureCollection",
"name": "Light_Rail_Stations_of_NJ_Transit",
"crs": { "type": "name", "properties": { "name": "urn:ogc:def:crs:OGC:1.3:CRS84" } },
"features": [
{ "type": "Feature", "properties": { "OBJECTID": 1, "MUNICIPALITY": "Bayonne", "COUNTY": "Hudson", "ID": 1.0, "STATION": "E. 34Th St.", "ATIS_ID": "30844", "SE_ANNO_CAD_DATA": "", "LATITUDE": 40.67183492, "LONGITUDE": -74.10746466000001, "LINE_CODE": "HB", "LAYER": "LIGHTRAILSTATIONS" }, "geometry": { "type": "Point", "coordinates": [ -74.10746613699996, 40.671843169000056 ] } },
{ "type": "Feature", "properties": { "OBJECTID": 2, "MUNICIPALITY": "Bayonne", "COUNTY": "Hudson", "ID": 2.0, "STATION": "E. 45Th St.", "ATIS_ID": "30843", "SE_ANNO_CAD_DATA": "", "LATITUDE": 40.67869494, "LONGITUDE": -74.10164197, "LINE_CODE": "HB", "LAYER": "LIGHTRAILSTATIONS" }, "geometry": { "type": "Point", "coordinates": [ -74.101643450999973, 40.678703183000039 ] } },
{ "type": "Feature", "properties": { "OBJECTID": 3, "MUNICIPALITY": "Jersey City", "COUNTY": "Hudson", "ID": 3.0, "STATION": "Danforth Ave", "ATIS_ID": "30842", "SE_ANNO_CAD_DATA": "", "LATITUDE": 40.69236168, "LONGITUDE": -74.08726856, "LINE_CODE": "HB", "LAYER": "LIGHTRAILSTATIONS" }, "geometry": { "type": "Point", "coordinates": [ -74.087270033999971, 40.692369929000051 ] } },
{ "type": "Feature", "properties": { "OBJECTID": 4, "MUNICIPALITY": "Jersey City", "COUNTY": "Hudson", "ID": 4.0, "STATION": "Richard St.", "ATIS_ID": "30841", "SE_ANNO_CAD_DATA": "", "LATITUDE": 40.6991476, "LONGITUDE": -74.07863665000001, "LINE_CODE": "HB", "LAYER": "LIGHTRAILSTATIONS" }, "geometry": { "type": "Point", "coordinates": [ -74.078638121999973, 40.699155848000032 ] } },
{ "type": "Feature", "properties": { "OBJECTID": 5, "MUNICIPALITY": "Jersey City", "COUNTY": "Hudson", "ID": 5.0, "STATION": "West Side Ave.", "ATIS_ID": "30840", "SE_ANNO_CAD_DATA": "", "LATITUDE": 40.714558, "LONGITUDE": -74.087584, "LINE_CODE": "HB", "LAYER": "LIGHTRAILSTATIONS" }, "geometry": { "type": "Point", "coordinates": [ -74.087585477999937, 40.714566253000044 ] } },
{ "type": "Feature", "properties": { "OBJECTID": 6, "MUNICIPALITY": "Jersey City", "COUNTY": "Hudson", "ID": 6.0, "STATION": "Martin Luther King Dr.", "ATIS_ID": "30839", "SE_ANNO_CAD_DATA": "", "LATITUDE": 40.7120988, "LONGITUDE": -74.0773341, "LINE_CODE": "HB", "LAYER": "LIGHTRAILSTATIONS" }, "geometry": { "type": "Point", "coordinates": [ -74.077335566999977, 40.712107049000053 ] } },
{ "type": "Feature", "properties": { "OBJECTID": 7, "MUNICIPALITY": "Jersey City", "COUNTY": "Hudson", "ID": 7.0, "STATION": "Garfield Ave.", "ATIS_ID": "30838", "SE_ANNO_CAD_DATA": "", "LATITUDE": 40.71057628, "LONGITUDE": -74.07109687000001, "LINE_CODE": "HB", "LAYER": "LIGHTRAILSTATIONS" }, "geometry": { "type": "Point", "coordinates": [ -74.07109834299996, 40.710584529000073 ] } },
{ "type": "Feature", "properties": { "OBJECTID": 8, "MUNICIPALITY": "Jersey City", "COUNTY": "Hudson", "ID": 8.0, "STATION": "Liberty State Park", "ATIS_ID": "30837", "SE_ANNO_CAD_DATA": "", "LATITUDE": 40.710375, "LONGITUDE": -74.055813, "LINE_CODE": "HB", "LAYER": "LIGHTRAILSTATIONS" }, "geometry": { "type": "Point", "coordinates": [ -74.055814466999948, 40.710383253000032 ] } },
{ "type": "Feature", "properties": { "OBJECTID": 9, "MUNICIPALITY": "Jersey City", "COUNTY": "Hudson", "ID": 9.0, "STATION": "Jersey Ave.", "ATIS_ID": "30836", "SE_ANNO_CAD_DATA": "", "LATITUDE": 40.7149822, "LONGITUDE": -74.04848344, "LINE_CODE": "HB", "LAYER": "LIGHTRAILSTATIONS" }, "geometry": { "type": "Point", "coordinates": [ -74.048484901999984, 40.714990453000041 ] } },
{ "type": "Feature", "properties": { "OBJECTID": 10, "MUNICIPALITY": "Jersey City", "COUNTY": "Hudson", "ID": 10.0, "STATION": "Marin Blvd.", "ATIS_ID": "30835", "SE_ANNO_CAD_DATA": "", "LATITUDE": 40.714436, "LONGITUDE": -74.043247, "LINE_CODE": "HB", "LAYER": "LIGHTRAILSTATIONS" }, "geometry": { "type": "Point", "coordinates": [ -74.043248463999987, 40.714444254000057 ] } },
{ "type": "Feature", "properties": { "OBJECTID": 11, "MUNICIPALITY": "Jersey City", "COUNTY": "Hudson", "ID": 11.0, "STATION": "Essex St.", "ATIS_ID": "30834", "SE_ANNO_CAD_DATA": "", "LATITUDE": 40.712841, "LONGITUDE": -74.036076, "LINE_CODE": "HB", "LAYER": "LIGHTRAILSTATIONS" }, "geometry": { "type": "Point", "coordinates": [ -74.036077460999934, 40.712849254000048 ] } },
{ "type": "Feature", "properties": { "OBJECTID": 12, "MUNICIPALITY": "Jersey City", "COUNTY": "Hudson", "ID": 12.0, "STATION": "Exchange Pl.", "ATIS_ID": "30833", "SE_ANNO_CAD_DATA": "", "LATITUDE": 40.71601835, "LONGITUDE": -74.03409078, "LINE_CODE": "HB", "LAYER": "LIGHTRAILSTATIONS" }, "geometry": { "type": "Point", "coordinates": [ -74.03409223999995, 40.71602660700006 ] } },
{ "type": "Feature", "properties": { "OBJECTID": 13, "MUNICIPALITY": "Jersey City", "COUNTY": "Hudson", "ID": 13.0, "STATION": "Harborside", "ATIS_ID": "30832", "SE_ANNO_CAD_DATA": "", "LATITUDE": 40.71890985, "LONGITUDE": -74.03410958000001, "LINE_CODE": "HB", "LAYER": "LIGHTRAILSTATIONS" }, "geometry": { "type": "Point", "coordinates": [ -74.03411104099996, 40.718918104000068 ] } },
{ "type": "Feature", "properties": { "OBJECTID": 14, "MUNICIPALITY": "Jersey City", "COUNTY": "Hudson", "ID": 14.0, "STATION": "Harismus Cove", "ATIS_ID": "30831", "SE_ANNO_CAD_DATA": "", "LATITUDE": 40.72267865, "LONGITUDE": -74.03728639000001, "LINE_CODE": "HB", "LAYER": "LIGHTRAILSTATIONS" }, "geometry": { "type": "Point", "coordinates": [ -74.037287847999949, 40.72268691000005 ] } },
{ "type": "Feature", "properties": { "OBJECTID": 15, "MUNICIPALITY": "Jersey City", "COUNTY": "Hudson", "ID": 15.0, "STATION": "Newport", "ATIS_ID": "30830", "SE_ANNO_CAD_DATA": "", "LATITUDE": 40.72681907, "LONGITUDE": -74.03623328, "LINE_CODE": "HB", "LAYER": "LIGHTRAILSTATIONS" }, "geometry": { "type": "Point", "coordinates": [ -74.036234736999972, 40.726827326000034 ] } },
{ "type": "Feature", "properties": { "OBJECTID": 16, "MUNICIPALITY": "Hoboken", "COUNTY": "Hudson", "ID": 16.0, "STATION": "Hoboken Terminal", "ATIS_ID": "30829", "SE_ANNO_CAD_DATA": "", "LATITUDE": 40.73405051, "LONGITUDE": -74.0292011, "LINE_CODE": "HB", "LAYER": "LIGHTRAILSTATIONS" }, "geometry": { "type": "Point", "coordinates": [ -74.029202561999966, 40.734058774000061 ] } },
{ "type": "Feature", "properties": { "OBJECTID": 17, "MUNICIPALITY": "Bayonne", "COUNTY": "Hudson", "ID": 17.0, "STATION": "E. 22Nd St", "ATIS_ID": "30845", "SE_ANNO_CAD_DATA": "", "LATITUDE": 40.66130356, "LONGITUDE": -74.116456, "LINE_CODE": "HB", "LAYER": "LIGHTRAILSTATIONS" }, "geometry": { "type": "Point", "coordinates": [ -74.116457479999951, 40.661311804000036 ] } },
{ "type": "Feature", "properties": { "OBJECTID": 18, "MUNICIPALITY": "Hoboken", "COUNTY": "Hudson", "ID": 18.0, "STATION": "9Th Street/Congress St", "ATIS_ID": "30827", "SE_ANNO_CAD_DATA": "", "LATITUDE": 40.74887797, "LONGITUDE": -74.03851291, "LINE_CODE": "HB", "LAYER": "LIGHTRAILSTATIONS" }, "geometry": { "type": "Point", "coordinates": [ -74.038514374999977, 40.748886233000064 ] } },
{ "type": "Feature", "properties": { "OBJECTID": 19, "MUNICIPALITY": "Jersey City", "COUNTY": "Hudson", "ID": 19.0, "STATION": "2Nd Street", "ATIS_ID": "30828", "SE_ANNO_CAD_DATA": "", "LATITUDE": 40.74173945, "LONGITUDE": -74.04281065000001, "LINE_CODE": "HB", "LAYER": "LIGHTRAILSTATIONS" }, "geometry": { "type": "Point", "coordinates": [ -74.042812114999947, 40.741747706000069 ] } },
{ "type": "Feature", "properties": { "OBJECTID": 20, "MUNICIPALITY": "Weehawken Twp", "COUNTY": "Hudson", "ID": 20.0, "STATION": "Lincoln Harbor", "ATIS_ID": "30826", "SE_ANNO_CAD_DATA": "", "LATITUDE": 40.76140229, "LONGITUDE": -74.02400147, "LINE_CODE": "HB", "LAYER": "LIGHTRAILSTATIONS" }, "geometry": { "type": "Point", "coordinates": [ -74.02400292599998, 40.761410556000044 ] } },
{ "type": "Feature", "properties": { "OBJECTID": 21, "MUNICIPALITY": "Weehawken Twp", "COUNTY": "Hudson", "ID": 21.0, "STATION": "Port Imperial", "ATIS_ID": "30825", "SE_ANNO_CAD_DATA": "", "LATITUDE": 40.77596751, "LONGITUDE": -74.0127977, "LINE_CODE": "HB", "LAYER": "LIGHTRAILSTATIONS" }, "geometry": { "type": "Point", "coordinates": [ -74.012799155999971, 40.775975774000074 ] } },
{ "type": "Feature", "properties": { "OBJECTID": 22, "MUNICIPALITY": "Union City", "COUNTY": "Hudson", "ID": 22.0, "STATION": "Bergenline Ave", "ATIS_ID": "30824", "SE_ANNO_CAD_DATA": "", "LATITUDE": 40.7825949, "LONGITUDE": -74.02290139, "LINE_CODE": "HB", "LAYER": "LIGHTRAILSTATIONS" }, "geometry": { "type": "Point", "coordinates": [ -74.02290284999998, 40.782603167000048 ] } },
{ "type": "Feature", "properties": { "OBJECTID": 23, "MUNICIPALITY": "North Bergen Twp", "COUNTY": "Hudson", "ID": 23.0, "STATION": "Tonnelle Ave", "ATIS_ID": "30823", "SE_ANNO_CAD_DATA": "", "LATITUDE": 40.78732587, "LONGITUDE": -74.03125859, "LINE_CODE": "HB", "LAYER": "LIGHTRAILSTATIONS" }, "geometry": { "type": "Point", "coordinates": [ -74.031260050999947, 40.787334144000056 ] } },
{ "type": "Feature", "properties": { "OBJECTID": 24, "MUNICIPALITY": "Newark", "COUNTY": "Essex", "ID": 24.0, "STATION": "Davenport Ave.", "ATIS_ID": "30763", "SE_ANNO_CAD_DATA": "", "LATITUDE": 40.77233771, "LONGITUDE": -74.17818803, "LINE_CODE": "NS", "LAYER": "LIGHTRAILSTATIONS" }, "geometry": { "type": "Point", "coordinates": [ -74.178189539999948, 40.772345973000029 ] } },
{ "type": "Feature", "properties": { "OBJECTID": 25, "MUNICIPALITY": "Newark", "COUNTY": "Essex", "ID": 25.0, "STATION": "Newark Penn Station", "ATIS_ID": "30771", "SE_ANNO_CAD_DATA": "", "LATITUDE": 40.7349256, "LONGITUDE": -74.16348751, "LINE_CODE": "NS", "LAYER": "LIGHTRAILSTATIONS" }, "geometry": { "type": "Point", "coordinates": [ -74.163489008999989, 40.734933854000076 ] } },
{ "type": "Feature", "properties": { "OBJECTID": 26, "MUNICIPALITY": "Newark", "COUNTY": "Essex", "ID": 26.0, "STATION": "Military Park", "ATIS_ID": "30770", "SE_ANNO_CAD_DATA": "", "LATITUDE": 40.73743526, "LONGITUDE": -74.17079142, "LINE_CODE": "NS", "LAYER": "LIGHTRAILSTATIONS" }, "geometry": { "type": "Point", "coordinates": [ -74.17079291999994, 40.737443513000073 ] } },
{ "type": "Feature", "properties": { "OBJECTID": 27, "MUNICIPALITY": "Newark", "COUNTY": "Essex", "ID": 27.0, "STATION": "Washington St.", "ATIS_ID": "30769", "SE_ANNO_CAD_DATA": "", "LATITUDE": 40.73834896, "LONGITUDE": -74.1740335, "LINE_CODE": "NS", "LAYER": "LIGHTRAILSTATIONS" }, "geometry": { "type": "Point", "coordinates": [ -74.174035003999961, 40.738357212000039 ] } },
{ "type": "Feature", "properties": { "OBJECTID": 28, "MUNICIPALITY": "Newark", "COUNTY": "Essex", "ID": 28.0, "STATION": "Warren St.", "ATIS_ID": "30768", "SE_ANNO_CAD_DATA": "", "LATITUDE": 40.74240906, "LONGITUDE": -74.18118796, "LINE_CODE": "NS", "LAYER": "LIGHTRAILSTATIONS" }, "geometry": { "type": "Point", "coordinates": [ -74.181189467999957, 40.742417311000054 ] } },
{ "type": "Feature", "properties": { "OBJECTID": 29, "MUNICIPALITY": "Newark", "COUNTY": "Essex", "ID": 29.0, "STATION": "Norfolk St.", "ATIS_ID": "30767", "SE_ANNO_CAD_DATA": "", "LATITUDE": 40.74534166, "LONGITUDE": -74.1830076, "LINE_CODE": "NS", "LAYER": "LIGHTRAILSTATIONS" }, "geometry": { "type": "Point", "coordinates": [ -74.183009111999979, 40.745349917000055 ] } },
{ "type": "Feature", "properties": { "OBJECTID": 30, "MUNICIPALITY": "Newark", "COUNTY": "Essex", "ID": 30.0, "STATION": "Branch Brook Park", "ATIS_ID": "30762", "SE_ANNO_CAD_DATA": "", "LATITUDE": 40.77963817, "LONGITUDE": -74.1746642, "LINE_CODE": "NS", "LAYER": "LIGHTRAILSTATIONS" }, "geometry": { "type": "Point", "coordinates": [ -74.174665708999953, 40.77964643100006 ] } },
{ "type": "Feature", "properties": { "OBJECTID": 31, "MUNICIPALITY": "Newark", "COUNTY": "Essex", "ID": 31.0, "STATION": "Bloomfield Ave.", "ATIS_ID": "30764", "SE_ANNO_CAD_DATA": "", "LATITUDE": 40.76543536, "LONGITUDE": -74.17988189, "LINE_CODE": "NS", "LAYER": "LIGHTRAILSTATIONS" }, "geometry": { "type": "Point", "coordinates": [ -74.179883392999955, 40.765443620000042 ] } },
{ "type": "Feature", "properties": { "OBJECTID": 32, "MUNICIPALITY": "Newark", "COUNTY": "Essex", "ID": 32.0, "STATION": "Orange St.", "ATIS_ID": "30766", "SE_ANNO_CAD_DATA": "", "LATITUDE": 40.75062343, "LONGITUDE": -74.18494068, "LINE_CODE": "NS", "LAYER": "LIGHTRAILSTATIONS" }, "geometry": { "type": "Point", "coordinates": [ -74.184942186999933, 40.750631687000066 ] } },
{ "type": "Feature", "properties": { "OBJECTID": 33, "MUNICIPALITY": "Newark", "COUNTY": "Essex", "ID": 33.0, "STATION": "Park Ave.", "ATIS_ID": "30765", "SE_ANNO_CAD_DATA": "", "LATITUDE": 40.75852585, "LONGITUDE": -74.18498172, "LINE_CODE": "NS", "LAYER": "LIGHTRAILSTATIONS" }, "geometry": { "type": "Point", "coordinates": [ -74.184983225999986, 40.758534105000081 ] } },
{ "type": "Feature", "properties": { "OBJECTID": 34, "MUNICIPALITY": "Belleville Twp", "COUNTY": "Essex", "ID": 34.0, "STATION": "Silver Lake", "ATIS_ID": "30761", "SE_ANNO_CAD_DATA": "", "LATITUDE": 40.78032659, "LONGITUDE": -74.18062944, "LINE_CODE": "NS", "LAYER": "LIGHTRAILSTATIONS" }, "geometry": { "type": "Point", "coordinates": [ -74.180630945999951, 40.780334850000031 ] } },
{ "type": "Feature", "properties": { "OBJECTID": 35, "MUNICIPALITY": "Bloomfield Twp", "COUNTY": "Essex", "ID": 35.0, "STATION": "Grove St.", "ATIS_ID": "30539", "SE_ANNO_CAD_DATA": "", "LATITUDE": 40.78044826, "LONGITUDE": -74.18795866000001, "LINE_CODE": "NS", "LAYER": "LIGHTRAILSTATIONS" }, "geometry": { "type": "Point", "coordinates": [ -74.187960166999972, 40.78045651900004 ] } },
{ "type": "Feature", "properties": { "OBJECTID": 36, "MUNICIPALITY": "Newark", "COUNTY": "Essex", "ID": 36.0, "STATION": "Njpac/Center St", "ATIS_ID": "30772", "SE_ANNO_CAD_DATA": "", "LATITUDE": 40.73950064, "LONGITUDE": -74.16557995, "LINE_CODE": "NS", "LAYER": "LIGHTRAILSTATIONS" }, "geometry": { "type": "Point", "coordinates": [ -74.16558145099998, 40.739508898000054 ] } },
{ "type": "Feature", "properties": { "OBJECTID": 37, "MUNICIPALITY": "Newark", "COUNTY": "Essex", "ID": 37.0, "STATION": "Atlantic St", "ATIS_ID": "30773", "SE_ANNO_CAD_DATA": "", "LATITUDE": 40.74416161, "LONGITUDE": -74.16848935, "LINE_CODE": "NS", "LAYER": "LIGHTRAILSTATIONS" }, "geometry": { "type": "Point", "coordinates": [ -74.168490848999966, 40.744169870000064 ] } },
{ "type": "Feature", "properties": { "OBJECTID": 38, "MUNICIPALITY": "Newark", "COUNTY": "Essex", "ID": 38.0, "STATION": "Washington Park", "ATIS_ID": "30776", "SE_ANNO_CAD_DATA": "", "LATITUDE": 40.74394356, "LONGITUDE": -74.16984897, "LINE_CODE": "NS", "LAYER": "LIGHTRAILSTATIONS" }, "geometry": { "type": "Point", "coordinates": [ -74.16985047299994, 40.743951816000049 ] } },
{ "type": "Feature", "properties": { "OBJECTID": 39, "MUNICIPALITY": "Newark", "COUNTY": "Essex", "ID": 39.0, "STATION": "Riverfront Stadium", "ATIS_ID": "30774", "SE_ANNO_CAD_DATA": "", "LATITUDE": 40.74601495, "LONGITUDE": -74.16965991, "LINE_CODE": "NS", "LAYER": "LIGHTRAILSTATIONS" }, "geometry": { "type": "Point", "coordinates": [ -74.169661416999986, 40.746023207000064 ] } },
{ "type": "Feature", "properties": { "OBJECTID": 40, "MUNICIPALITY": "Newark", "COUNTY": "Essex", "ID": 40.0, "STATION": "Broad Street Station", "ATIS_ID": "30775", "SE_ANNO_CAD_DATA": "", "LATITUDE": 40.74720577, "LONGITUDE": -74.17150598000001, "LINE_CODE": "NS", "LAYER": "LIGHTRAILSTATIONS" }, "geometry": { "type": "Point", "coordinates": [ -74.171507478999956, 40.747214030000066 ] } },
{ "type": "Feature", "properties": { "OBJECTID": 41, "MUNICIPALITY": "Trenton", "COUNTY": "Mercer", "ID": 41.0, "STATION": "Trenton", "ATIS_ID": "30855", "SE_ANNO_CAD_DATA": "", "LATITUDE": 40.21837215, "LONGITUDE": -74.75508319, "LINE_CODE": "RL", "LAYER": "LIGHTRAILSTATIONS" }, "geometry": { "type": "Point", "coordinates": [ -74.755084846999978, 40.218380280000076 ] } },
{ "type": "Feature", "properties": { "OBJECTID": 42, "MUNICIPALITY": "Trenton", "COUNTY": "Mercer", "ID": 42.0, "STATION": "Hamilton Avenue", "ATIS_ID": "30856", "SE_ANNO_CAD_DATA": "", "LATITUDE": 40.21194075, "LONGITUDE": -74.75576517, "LINE_CODE": "RL", "LAYER": "LIGHTRAILSTATIONS" }, "geometry": { "type": "Point", "coordinates": [ -74.755766828999981, 40.211948883000048 ] } },
{ "type": "Feature", "properties": { "OBJECTID": 43, "MUNICIPALITY": "Trenton", "COUNTY": "Mercer", "ID": 43.0, "STATION": "Cass Street", "ATIS_ID": "30857", "SE_ANNO_CAD_DATA": "", "LATITUDE": 40.20542752, "LONGITUDE": -74.754276, "LINE_CODE": "RL", "LAYER": "LIGHTRAILSTATIONS" }, "geometry": { "type": "Point", "coordinates": [ -74.754277652999974, 40.205435650000027 ] } },
{ "type": "Feature", "properties": { "OBJECTID": 44, "MUNICIPALITY": "Bordentown City", "COUNTY": "Burlington", "ID": 44.0, "STATION": "Bordentown", "ATIS_ID": "30858", "SE_ANNO_CAD_DATA": "", "LATITUDE": 40.14818914, "LONGITUDE": -74.71624254, "LINE_CODE": "RL", "LAYER": "LIGHTRAILSTATIONS" }, "geometry": { "type": "Point", "coordinates": [ -74.716244184999937, 40.148197257000049 ] } },
{ "type": "Feature", "properties": { "OBJECTID": 45, "MUNICIPALITY": "Florence Twp", "COUNTY": "Burlington", "ID": 45.0, "STATION": "Roebling", "ATIS_ID": "30859", "SE_ANNO_CAD_DATA": "", "LATITUDE": 40.11689175, "LONGITUDE": -74.77023597, "LINE_CODE": "RL", "LAYER": "LIGHTRAILSTATIONS" }, "geometry": { "type": "Point", "coordinates": [ -74.770237622999957, 40.11689986500005 ] } },
{ "type": "Feature", "properties": { "OBJECTID": 46, "MUNICIPALITY": "Florence Twp", "COUNTY": "Burlington", "ID": 46.0, "STATION": "Florence", "ATIS_ID": "30860", "SE_ANNO_CAD_DATA": "", "LATITUDE": 40.10000062, "LONGITUDE": -74.80510807, "LINE_CODE": "RL", "LAYER": "LIGHTRAILSTATIONS" }, "geometry": { "type": "Point", "coordinates": [ -74.805109738999988, 40.100008725000066 ] } },
{ "type": "Feature", "properties": { "OBJECTID": 47, "MUNICIPALITY": "Burlington City", "COUNTY": "Burlington", "ID": 47.0, "STATION": "Burlington Town Centre", "ATIS_ID": "30861", "SE_ANNO_CAD_DATA": "", "LATITUDE": 40.07737091, "LONGITUDE": -74.85942872, "LINE_CODE": "RL", "LAYER": "LIGHTRAILSTATIONS" }, "geometry": { "type": "Point", "coordinates": [ -74.859430400999941, 40.077379006000058 ] } },
{ "type": "Feature", "properties": { "OBJECTID": 48, "MUNICIPALITY": "Burlington City", "COUNTY": "Burlington", "ID": 48.0, "STATION": "Burlington South", "ATIS_ID": "30862", "SE_ANNO_CAD_DATA": "", "LATITUDE": 40.07459303, "LONGITUDE": -74.86900746000001, "LINE_CODE": "RL", "LAYER": "LIGHTRAILSTATIONS" }, "geometry": { "type": "Point", "coordinates": [ -74.869009139999946, 40.074601131000065 ] } },
{ "type": "Feature", "properties": { "OBJECTID": 49, "MUNICIPALITY": "Beverly", "COUNTY": "Burlington", "ID": 49.0, "STATION": "Beverly/Edgewater Park", "ATIS_ID": "30863", "SE_ANNO_CAD_DATA": "", "LATITUDE": 40.061095, "LONGITUDE": -74.915216, "LINE_CODE": "RL", "LAYER": "LIGHTRAILSTATIONS" }, "geometry": { "type": "Point", "coordinates": [ -74.915217699999971, 40.061103096000068 ] } },
{ "type": "Feature", "properties": { "OBJECTID": 50, "MUNICIPALITY": "Delanco Twp", "COUNTY": "Burlington", "ID": 50.0, "STATION": "Delanco", "ATIS_ID": "30864", "SE_ANNO_CAD_DATA": "", "LATITUDE": 40.04810259, "LONGITUDE": -74.95036392, "LINE_CODE": "RL", "LAYER": "LIGHTRAILSTATIONS" }, "geometry": { "type": "Point", "coordinates": [ -74.950365630999954, 40.048110678000057 ] } },
{ "type": "Feature", "properties": { "OBJECTID": 51, "MUNICIPALITY": "Riverside Twp", "COUNTY": "Burlington", "ID": 51.0, "STATION": "Riverside", "ATIS_ID": "30865", "SE_ANNO_CAD_DATA": "", "LATITUDE": 40.03926018, "LONGITUDE": -74.95889042, "LINE_CODE": "RL", "LAYER": "LIGHTRAILSTATIONS" }, "geometry": { "type": "Point", "coordinates": [ -74.958892133999939, 40.039268266000079 ] } },
{ "type": "Feature", "properties": { "OBJECTID": 52, "MUNICIPALITY": "Cinnaminson Twp", "COUNTY": "Burlington", "ID": 52.0, "STATION": "Cinnaminson", "ATIS_ID": "30866", "SE_ANNO_CAD_DATA": "", "LATITUDE": 40.01665234, "LONGITUDE": -74.9999805, "LINE_CODE": "RL", "LAYER": "LIGHTRAILSTATIONS" }, "geometry": { "type": "Point", "coordinates": [ -74.999982220999982, 40.016660424000065 ] } },
{ "type": "Feature", "properties": { "OBJECTID": 53, "MUNICIPALITY": "Riverton", "COUNTY": "Burlington", "ID": 53.0, "STATION": "Riverton", "ATIS_ID": "30867", "SE_ANNO_CAD_DATA": "", "LATITUDE": 40.00896439, "LONGITUDE": -75.01307949, "LINE_CODE": "RL", "LAYER": "LIGHTRAILSTATIONS" }, "geometry": { "type": "Point", "coordinates": [ -75.013081217999968, 40.008972475000064 ] } },
{ "type": "Feature", "properties": { "OBJECTID": 54, "MUNICIPALITY": "Palmyra", "COUNTY": "Burlington", "ID": 54.0, "STATION": "Palmyra", "ATIS_ID": "30868", "SE_ANNO_CAD_DATA": "", "LATITUDE": 40.00426258, "LONGITUDE": -75.02109456, "LINE_CODE": "RL", "LAYER": "LIGHTRAILSTATIONS" }, "geometry": { "type": "Point", "coordinates": [ -75.021096285999988, 40.004270657000063 ] } },
{ "type": "Feature", "properties": { "OBJECTID": 55, "MUNICIPALITY": "Pennsauken Twp", "COUNTY": "Camden", "ID": 55.0, "STATION": "Pennsauken/Route 73", "ATIS_ID": "30869", "SE_ANNO_CAD_DATA": "", "LATITUDE": 39.99341403, "LONGITUDE": -75.03907027, "LINE_CODE": "RL", "LAYER": "LIGHTRAILSTATIONS" }, "geometry": { "type": "Point", "coordinates": [ -75.039072001999955, 39.993422103000057 ] } },
{ "type": "Feature", "properties": { "OBJECTID": 56, "MUNICIPALITY": "Pennsauken Twp", "COUNTY": "Camden", "ID": 56.0, "STATION": "36Th Street", "ATIS_ID": "30870", "SE_ANNO_CAD_DATA": "", "LATITUDE": 39.96127479, "LONGITUDE": -75.07909511, "LINE_CODE": "RL", "LAYER": "LIGHTRAILSTATIONS" }, "geometry": { "type": "Point", "coordinates": [ -75.079096851999964, 39.96128285900005 ] } },
{ "type": "Feature", "properties": { "OBJECTID": 57, "MUNICIPALITY": "Camden", "COUNTY": "Camden", "ID": 57.0, "STATION": "Walter Rand Transportation Center", "ATIS_ID": "30871", "SE_ANNO_CAD_DATA": "", "LATITUDE": 39.9431562, "LONGITUDE": -75.12032703, "LINE_CODE": "RL", "LAYER": "LIGHTRAILSTATIONS" }, "geometry": { "type": "Point", "coordinates": [ -75.120328790999963, 39.943164267000043 ] } },
{ "type": "Feature", "properties": { "OBJECTID": 58, "MUNICIPALITY": "Camden", "COUNTY": "Camden", "ID": 58.0, "STATION": "Cooper St/Rutgers", "ATIS_ID": "30872", "SE_ANNO_CAD_DATA": "", "LATITUDE": 39.94748495, "LONGITUDE": -75.12414458000001, "LINE_CODE": "RL", "LAYER": "LIGHTRAILSTATIONS" }, "geometry": { "type": "Point", "coordinates": [ -75.124146338999935, 39.947493018000046 ] } },
{ "type": "Feature", "properties": { "OBJECTID": 59, "MUNICIPALITY": "Camden", "COUNTY": "Camden", "ID": 59.0, "STATION": "Aquarium", "ATIS_ID": "30873", "SE_ANNO_CAD_DATA": "", "LATITUDE": 39.94562604, "LONGITUDE": -75.1286695, "LINE_CODE": "RL", "LAYER": "LIGHTRAILSTATIONS" }, "geometry": { "type": "Point", "coordinates": [ -75.128671255999961, 39.945634106000057 ] } },
{ "type": "Feature", "properties": { "OBJECTID": 60, "MUNICIPALITY": "Camden", "COUNTY": "Camden", "ID": 60.0, "STATION": "Entertainment Center", "ATIS_ID": "30874", "SE_ANNO_CAD_DATA": "", "LATITUDE": 39.94091568, "LONGITUDE": -75.12848996, "LINE_CODE": "RL", "LAYER": "LIGHTRAILSTATIONS" }, "geometry": { "type": "Point", "coordinates": [ -75.128491717999964, 39.940923749000035 ] } },
{ "type": "Feature", "properties": { "OBJECTID": 61, "MUNICIPALITY": "Bayonne", "COUNTY": "Hudson", "ID": 61.0, "STATION": "8Th St", "ATIS_ID": "31145", "SE_ANNO_CAD_DATA": "", "LATITUDE": 40.65429256, "LONGITUDE": -74.1289421, "LINE_CODE": "HB", "LAYER": "LIGHTRAILSTATIONS" }, "geometry": { "type": "Point", "coordinates": [ -74.128943585999934, 40.654300800000044 ] } },
{ "type": "Feature", "properties": { "OBJECTID": 62, "MUNICIPALITY": "Pennsauken Twp", "COUNTY": "Camden", "ID": 62.0, "STATION": "Pennsauken Transit Center", "ATIS_ID": "31898", "SE_ANNO_CAD_DATA": "", "LATITUDE": 39.97829757, "LONGITUDE": -75.0619732, "LINE_CODE": "RL", "LAYER": "LIGHTRAILSTATIONS" }, "geometry": { "type": "Point", "coordinates": [ -75.061974939999971, 39.978305642000066 ] } }
]
}
